<?xml version="1.0" encoding="UTF - 8"?>
<way id="165237603">
<nd ref="1767977209" lat="45.0192960" lon="39.0266435"/>
<nd ref="1767977225" lat="45.0194130" lon="39.0266341"/>
<nd ref="1767977227" lat="45.0194216" lon="39.0268479"/>
<nd ref="3467525893" lat="45.0193678" lon="39.0268522"/>
<nd ref="1767977211" lat="45.0193046" lon="39.0268573"/>
<nd ref="1767977209" lat="45.0192960" lon="39.0266435"/>
<tag k="addr:city" v="Краснодар"/>
<tag k="addr:country" v="RU"/>
<tag k="addr:housenumber" v="161"/>
<tag k="addr:postcode" v="350040"/>
<tag k="addr:street" v="улица КИМ"/>
<tag k="building" v="yes"/>
<tag k="building:levels" v="1"/>
<tag k="source" v="PG Mapping Project"/>
</way>
